{
  "ginza_tourist_spots": [
    {
      "no": 1,
      "name": "銀座和光",
      "latitude": 35.671735,
      "longitude": 139.7650442,
      "address": "東京都中央区銀座4-5-11",
      "description": "銀座のシンボル的な老舗百貨店。時計塔が有名で、高級時計や宝飾品を扱う。銀座4丁目交差点の角に位置し、歴史的価値も高い。"
    },
    {
      "no": 2,
      "name": "歌舞伎座",
      "latitude": 35.6693303,
      "longitude": 139.7677875,
      "address": "東京都中央区銀座4-12-15",
      "description": "伝統的な日本の演劇を鑑賞できる劇場。歌舞伎公演を定期開催し、館内には売店やレストランも。バリアフリー対応で観光客にも人気。"
    },
    {
      "no": 3,
      "name": "GINZA SIX",
      "latitude": 35.6697688,
      "longitude": 139.7641762,
      "address": "東京都中央区銀座6-10-1",
      "description": "2017年開業の大型商業施設。241店舗が入居し、レストラン、屋上庭園、ラグジュアリーブランド、アート展示が楽しめる。"
    },
    {
      "no": 4,
      "name": "東急プラザ銀座",
      "latitude": 35.6722448,
      "longitude": 139.7624127,
      "address": "東京都中央区銀座5-2-1",
      "description": "江戸切子をモチーフにした外観が特徴的。多様なテナントが入居し、屋上には「キリコテラス」という庭園がある。"
    },
    {
      "no": 5,
      "name": "銀座三越",
      "latitude": 35.671817,
      "longitude": 139.7648,
      "address": "東京都中央区銀座4-6-16",
      "description": "銀座4丁目に位置する老舗百貨店。ライオン像が目印で、ファッションからグルメまで幅広い品揃え。"
    },
    {
      "no": 6,
      "name": "銀座ソニーパーク",
      "latitude": 35.6720765,
      "longitude": 139.7631115,
      "address": "東京都中央区銀座5-3-1",
      "description": "ソニーの技術を体験できる多層型施設。イベント、展示、レストラン、Aiboとの触れ合いなど、ユニークなデザインが特徴。"
    },
    {
      "no": 7,
      "name": "松屋銀座",
      "latitude": 35.6719,
      "longitude": 139.7644,
      "address": "東京都中央区銀座3-6-1",
      "description": "銀座3丁目の老舗百貨店。地下の食品売り場と文化イベントで知られる。"
    },
    {
      "no": 8,
      "name": "銀座中央通り",
      "latitude": 35.6708,
      "longitude": 139.7650,
      "address": "東京都中央区銀座4丁目周辺",
      "description": "銀座のメインストリート。高級ブランド店や百貨店が立ち並び、週末は歩行者天国になる。"
    },
    {
      "no": 9,
      "name": "銀座伊東屋",
      "latitude": 35.6731273,
      "longitude": 139.7672138,
      "address": "東京都中央区銀座2-7-15",
      "description": "12階建ての文房具専門店。高品質な文房具、筆記用具、デスク用品を幅広く扱う。カフェもあり、アート的な品揃えが魅力。"
    },
    {
      "no": 10,
      "name": "出光美術館",
      "latitude": 35.6763597,
      "longitude": 139.7609574,
      "address": "東京都千代田区丸の内3-1-1 国際ビル9階",
      "description": "9階建てビルの最上階にある東洋古美術専門の美術館。日本画から中国陶磁器まで展示。ギフトショップも併設。"
    },
    {
      "no": 11,
      "name": "ポーラミュージアムアネックス",
      "latitude": 35.6742613,
      "longitude": 139.767948,
      "address": "東京都中央区銀座1-7-7 ポーラ銀座ビル3階",
      "description": "現代アートギャラリー。スタイリッシュな高層ビル内で企画展を開催。無料入場で、小規模ながら創造性に溢れた空間。"
    },
    {
      "no": 12,
      "name": "銀座博品館",
      "latitude": 35.6677914,
      "longitude": 139.7611249,
      "address": "東京都中央区銀座8-8-11",
      "description": "4階建ての玩具専門店。クラシック、モダン、レアな玩具など幅広い品揃え。4階にはミニレースカートラックもある。"
    },
    {
      "no": 13,
      "name": "東京国際フォーラム",
      "latitude": 35.6765,
      "longitude": 139.7637,
      "address": "東京都千代田区丸の内3-5-1",
      "description": "ガラス張りの巨大コンベンション施設。コンサート、展示会、イベント会場として利用される。異空間のような圧巻の建築。"
    },
    {
      "no": 14,
      "name": "日比谷公園",
      "latitude": 35.6735,
      "longitude": 139.7561,
      "address": "東京都千代田区日比谷公園1-6",
      "description": "都心のオアシス。広大な緑地で、四季折々の花々や噴水を楽しめる。散歩やピクニックに最適。"
    },
    {
      "no": 15,
      "name": "有楽町マリオン",
      "latitude": 35.6752,
      "longitude": 139.7628,
      "address": "東京都千代田区有楽町2-5-1",
      "description": "映画館、ショップ、レストランが入った複合施設。有楽町駅直結でアクセス便利。"
    },
    {
      "no": 16,
      "name": "築地場外市場",
      "latitude": 35.6654,
      "longitude": 139.7707,
      "address": "東京都中央区築地4丁目周辺",
      "description": "新鮮な海産物や食材が揃う市場。食べ歩きグルメも豊富で、観光客に人気。"
    },
    {
      "no": 17,
      "name": "新橋演舞場",
      "latitude": 35.6653,
      "longitude": 139.7596,
      "address": "東京都中央区銀座6-18-2",
      "description": "大正14年開場の伝統的な劇場。歌舞伎や演劇公演を開催。歴史ある建物が魅力。"
    },
    {
      "no": 18,
      "name": "銀座並木通り",
      "latitude": 35.6710,
      "longitude": 139.7655,
      "address": "東京都中央区銀座5丁目周辺",
      "description": "銀座中央通りと並行する小道。高級ブティックやカフェが立ち並ぶ、落ち着いた雰囲気のストリート。"
    },
    {
      "no": 19,
      "name": "東京ミッドタウン日比谷",
      "latitude": 35.6744,
      "longitude": 139.7591,
      "address": "東京都千代田区有楽町1-1-2",
      "description": "2018年開業の複合施設。ショップ、レストラン、映画館、屋上庭園があり、日比谷公園に隣接。"
    },
    {
      "no": 20,
      "name": "皇居外苑",
      "latitude": 35.6812,
      "longitude": 139.7530,
      "address": "東京都千代田区皇居外苑1-1",
      "description": "皇居周辺の広大な公園。二重橋や桜田門など歴史的建造物があり、ジョギングや散策に人気。"
    }
  ]
}
